{"type":"Topology","objects":{"cities":{"type":"GeometryCollection","geometries":[{"type":"Point","properties":{"name":"Xiamen","state":"Fujian"},"coordinates":[7656,1161]},{"type":"Point","properties":{"name":"Nanchong","state":"Sichuan"},"coordinates":[5483,3421]},{"type":"Point","properties":{"name":"Neijiang","state":"Sichuan"},"coordinates":[5287,2993]},{"type":"Point","properties":{"name":"Nanyang","state":"Henan"},"coordinates":[6646,4214]},{"type":"Point","properties":{"name":"Jinxi","state":"Liaoning"},"coordinates":[8155,6982]},{"type":"Point","properties":{"name":"Yantai","state":"Shandong"},"coordinates":[8259,5832]},{"type":"Point","properties":{"name":"Zaozhuang","state":"Shandong"},"coordinates":[7563,4886]},{"type":"Point","properties":{"name":"Suzhou","state":"Jiangsu"},"coordinates":[8117,3607]},{"type":"Point","properties":{"name":"Xuzhou","state":"Jiangsu"},"coordinates":[7492,4671]},{"type":"Point","properties":{"name":"Wuxi","state":"Jiangsu"},"coordinates":[8059,3707]},{"type":"Point","properties":{"name":"Jilin","state":"Jilin"},"coordinates":[9195,8089]},{"type":"Point","properties":{"name":"Zhangye","state":"Gansu"},"coordinates":[4451,6331]},{"type":"Point","properties":{"name":"Wuwei","state":"Gansu"},"coordinates":[4849,5973]},{"type":"Point","properties":{"name":"Dunhuang","state":"Gansu"},"coordinates":[3398,6764]},{"type":"Point","properties":{"name":"Tianshui","state":"Gansu"},"coordinates":[5445,4786]},{"type":"Point","properties":{"name":"Dulan","state":"Gansu"},"coordinates":[4054,5344]},{"type":"Point","properties":{"name":"Golmud","state":"Gansu"},"coordinates":[3439,5434]},{"type":"Point","properties":{"name":"Yulin","state":"Guangxi"},"coordinates":[6214,511]},{"type":"Point","properties":{"name":"Bose","state":"Guangxi"},"coordinates":[5571,963]},{"type":"Point","properties":{"name":"Wuzhou","state":"Guangxi"},"coordinates":[6427,814]},{"type":"Point","properties":{"name":"Lupanshui","state":"Guizhou"},"coordinates":[5247,1927]},{"type":"Point","properties":{"name":"Quanzhou","state":"Fujian"},"coordinates":[7746,1321]},{"type":"Point","properties":{"name":"Hefei","state":"Anhui"},"coordinates":[7510,3803]},{"type":"Point","properties":{"name":"Suzhou","state":"Anhui"},"coordinates":[7455,4441]},{"type":"Point","properties":{"name":"Zhanjiang","state":"Guangdong"},"coordinates":[6256,0]},{"type":"Point","properties":{"name":"Shaoguan","state":"Guangdong"},"coordinates":[6838,1285]},{"type":"Point","properties":{"name":"Xigaze","state":"Xizang"},"coordinates":[2348,2874]},{"type":"Point","properties":{"name":"Shache","state":"Xinjiang Uygur"},"coordinates":[233,6151]},{"type":"Point","properties":{"name":"Yining","state":"Xinjiang Uygur"},"coordinates":[978,8106]},{"type":"Point","properties":{"name":"Altay","state":"Xinjiang Uygur"},"coordinates":[2208,9523]},{"type":"Point","properties":{"name":"Shizuishan","state":"Ningxia Hui"},"coordinates":[5599,6440]},{"type":"Point","properties":{"name":"Yulin","state":"Shaanxi"},"coordinates":[6138,6100]},{"type":"Point","properties":{"name":"Ankang","state":"Shaanxi"},"coordinates":[6009,4099]},{"type":"Point","properties":{"name":"Houma","state":"Shanxi"},"coordinates":[6407,5149]},{"type":"Point","properties":{"name":"Yueyang","state":"Hunan"},"coordinates":[6750,2921]},{"type":"Point","properties":{"name":"Hengyang","state":"Hunan"},"coordinates":[6657,2029]},{"type":"Point","properties":{"name":"Mianyang","state":"Sichuan"},"coordinates":[5236,3668]},{"type":"Point","properties":{"name":"Xichang","state":"Sichuan"},"coordinates":[4787,2385]},{"type":"Point","properties":{"name":"Baoshan","state":"Yunnan"},"coordinates":[4214,1399]},{"type":"Point","properties":{"name":"Gejiu","state":"Yunnan"},"coordinates":[4942,778]},{"type":"Point","properties":{"name":"Shijianzhuang","state":"Hebei"},"coordinates":[7001,6018]},{"type":"Point","properties":{"name":"Handan","state":"Hebei"},"coordinates":[7001,5493]},{"type":"Point","properties":{"name":"Anshan","state":"Liaoning"},"coordinates":[8539,7112]},{"type":"Point","properties":{"name":"Dalian","state":"Liaoning"},"coordinates":[8301,6329]},{"type":"Point","properties":{"name":"Qingdao","state":"Shandong"},"coordinates":[8065,5318]},{"type":"Point","properties":{"name":"Linyi","state":"Shandong"},"coordinates":[7701,4957]},{"type":"Point","properties":{"name":"Huaiyin","state":"Jiangsu"},"coordinates":[7828,4421]},{"type":"Point","properties":{"name":"Wenzhou","state":"Zhejiang"},"coordinates":[8123,2436]},{"type":"Point","properties":{"name":"Ningbo","state":"Zhejiang"},"coordinates":[8286,3100]},{"type":"Point","properties":{"name":"Tongliao","state":"Nei Mongol"},"coordinates":[8417,8007]},{"type":"Point","properties":{"name":"Hohhot","state":"Nei Mongol"},"coordinates":[6488,7007]},{"type":"Point","properties":{"name":"Chifeng","state":"Nei Mongol"},"coordinates":[7814,7525]},{"type":"Point","properties":{"name":"Ulanhot","state":"Nei Mongol"},"coordinates":[8383,8885]},{"type":"Point","properties":{"name":"Hailar","state":"Nei Mongol"},"coordinates":[7950,9999]},{"type":"Point","properties":{"name":"Jiamusi","state":"Heilongjiang"},"coordinates":[9886,9153]},{"type":"Point","properties":{"name":"Beian","state":"Heilongjiang"},"coordinates":[9183,9656]},{"type":"Point","properties":{"name":"Daqing","state":"Heilongjiang"},"coordinates":[8914,9064]},{"type":"Point","properties":{"name":"Jixi","state":"Heilongjiang"},"coordinates":[9999,8607]},{"type":"Point","properties":{"name":"Jiayuguan","state":"Gansu"},"coordinates":[4060,6649]},{"type":"Point","properties":{"name":"Xining","state":"Gansu"},"coordinates":[4690,5507]},{"type":"Point","properties":{"name":"Guilin","state":"Guangxi"},"coordinates":[6237,1457]},{"type":"Point","properties":{"name":"Huainan","state":"Anhui"},"coordinates":[7456,4082]},{"type":"Point","properties":{"name":"Shantou","state":"Guangdong"},"coordinates":[7399,775]},{"type":"Point","properties":{"name":"Lhasa","state":"Xizang"},"coordinates":[2751,3015]},{"type":"Point","properties":{"name":"Hami","state":"Xinjiang Uygur"},"coordinates":[3190,7723]},{"type":"Point","properties":{"name":"Hotan","state":"Xinjiang Uygur"},"coordinates":[719,5678]},{"type":"Point","properties":{"name":"Kashgar","state":"Xinjiang Uygur"},"coordinates":[0,6526]},{"type":"Point","properties":{"name":"Yinchuan","state":"Ningxia Hui"},"coordinates":[5509,6167]},{"type":"Point","properties":{"name":"Pingxiang","state":"Jiangxi"},"coordinates":[6886,2293]},{"type":"Point","properties":{"name":"Qiqihar","state":"Heilongjiang"},"coordinates":[8730,9337]},{"type":"Point","properties":{"name":"Shenzhen","state":"Guangdong"},"coordinates":[6936,483]},{"type":"Point","properties":{"name":"Zibo","state":"Shandong"},"coordinates":[7650,5571]},{"type":"Point","properties":{"name":"Lanzhou","state":"Gansu"},"coordinates":[5058,5306]},{"type":"Point","properties":{"name":"Nanning","state":"Guangxi"},"coordinates":[5881,579]},{"type":"Point","properties":{"name":"Guiyang","state":"Guizhou"},"coordinates":[5590,1921]},{"type":"Point","properties":{"name":"Chongqing","state":"Chongqing"},"coordinates":[5567,2987]},{"type":"Point","properties":{"name":"Fuzhou","state":"Fujian"},"coordinates":[7877,1743]},{"type":"Point","properties":{"name":"Guangzhou","state":"Guangdong"},"coordinates":[6791,695]},{"type":"Point","properties":{"name":"Dongguan","state":"Guangdong"},"coordinates":[6867,660]},{"type":"Point","properties":{"name":"Xian","state":"Shaanxi"},"coordinates":[5986,4670]},{"type":"Point","properties":{"name":"Taiyuan","state":"Shanxi"},"coordinates":[6649,5955]},{"type":"Point","properties":{"name":"Wuhan","state":"Hubei"},"coordinates":[6963,3350]},{"type":"Point","properties":{"name":"Changsha","state":"Hunan"},"coordinates":[6726,2500]},{"type":"Point","properties":{"name":"Kunming","state":"Yunnan"},"coordinates":[4856,1382]},{"type":"Point","properties":{"name":"Zhengzhou","state":"Henan"},"coordinates":[6853,4841]},{"type":"Point","properties":{"name":"Shenyeng","state":"Liaoning"},"coordinates":[8632,7359]},{"type":"Point","properties":{"name":"Jinan","state":"Shandong"},"coordinates":[7458,5527]},{"type":"Point","properties":{"name":"Tianjin","state":"Tianjin"},"coordinates":[7496,6403]},{"type":"Point","properties":{"name":"Nanchang","state":"Jiangxi"},"coordinates":[7256,2671]},{"type":"Point","properties":{"name":"Nanjing","state":"Jiangsu"},"coordinates":[7783,3875]},{"type":"Point","properties":{"name":"Hangzhou","state":"Zhejiang"},"coordinates":[8035,3232]},{"type":"Point","properties":{"name":"Changchun","state":"Jilin"},"coordinates":[8975,8094]},{"type":"Point","properties":{"name":"Baotou","state":"Nei Mongol"},"coordinates":[6154,6947]},{"type":"Point","properties":{"name":"Harbin","state":"Heilongjiang"},"coordinates":[9214,8768]},{"type":"Point","properties":{"name":"Urumqi","state":"Xinjiang Uygur"},"coordinates":[2110,8073]},{"type":"Point","properties":{"name":"Chengdu","state":"Sichuan"},"coordinates":[5108,3382]},{"type":"Point","properties":{"name":"Beijing","state":"Beijing"},"coordinates":[7348,6689]},{"type":"Point","properties":{"name":"Shanghai","state":"Shanghai"},"coordinates":[8266,3577]}]}},"arcs":[],"transform":{"scale":[0.005500365989496632,0.0028000850564446193],"translate":[75.9699259022097,21.20192960187819]}}